time(sec),position_x,position_y,position_z,roll,pitch,yaw,target_x,target_y,target_z,velocity_x,velocity_y,velocity_z,
0.231401383,0,0,0,0,0,0,0,0,0,0,0,0
0.431392346,0.00042567,0.000921842,-0.000705727,-0.0180269,0.0363195,-0.000741545,0,0,0,5.2525e-05,0.00235382,-0.00173001
0.631403335,0.000241848,0.00153897,-0.001077,-0.0180009,0.0363128,-0.000722717,0,0,0,-0.000637672,0.00231164,-0.00251482
0.831399563,-1.80204e-05,0.00190457,-0.001344,-0.0180085,0.0363016,-0.000742651,0,0,0,-0.000562011,0.00271122,-0.00243913
1.031392439,-0.000248022,0.00212043,-0.0016244,-0.0180085,0.0362434,-0.000792966,0,0,0,-0.000376342,0.00251047,-0.00241732
1.231428325,-0.000318039,0.00214192,-0.00180658,-0.0179534,0.0362257,-0.000850911,0,0,0,-0.000450551,0.00238474,-0.00208672
1.431355017,-0.000377569,0.00209956,-0.00183593,-0.0179574,0.036176,-0.000893029,0,0,0,-0.000858685,0.00273499,-0.00180714
1.631355529,-0.000509561,0.00206338,-0.00163142,-0.0179636,0.0362062,-0.000943914,0,0,0,-0.00144754,0.00253079,-0.00130569
1.831355864,-0.00079557,0.00190605,-0.00132591,-0.0179274,0.0362738,-0.000957355,0,0,0,-0.00230943,0.00181259,-0.000487066
2.031354165,-0.00114416,0.00163782,-0.000951051,-0.0179269,0.0362615,-0.0009757,0,0,0,-0.00276427,0.00132834,-9.55953e-05
2.231354617,-0.00138794,0.00138179,-0.000592413,-0.0178668,0.0362878,-0.000989515,0,0,0,-0.00230562,0.00115514,0.000245583
2.431391993,-0.00154307,0.00107344,-0.000328812,-0.0178779,0.0362664,-0.00095226,0,0,0,-0.00291942,0.0001134,0.000113405
2.631366544,-0.0016602,0.000508983,-0.000168716,-0.0178163,0.0362904,-0.000901613,0,0,0,-0.00241236,-0.0010941,-0.000398554
2.831372755,-0.00164496,4.30449e-05,-0.000167887,-0.0177744,0.0363101,-0.000906507,0,0,0,-0.00214655,-0.00173001,-0.000447139
3.031365015,-0.00157461,-0.000531792,-0.000219204,-0.0177781,0.0363202,-0.000930187,0,0,0,-0.00235394,-0.00195847,-0.000685409
3.231391405,-0.00154507,-0.00103794,-0.000268514,-0.0177836,0.0363386,-0.000944362,0,0,0,-0.00247142,-0.00260594,-0.000242449
3.431370710,-0.0014734,-0.00146565,-0.00023941,-0.0177683,0.0363758,-0.000932105,0,0,0,-0.00140939,-0.00299664,-0.000308319
3.631355739,-0.00132782,-0.00176399,-0.000270422,-0.0177567,0.0363683,-0.00091328,0,0,0,-0.00140815,-0.0032685,-0.000504928
3.831353178,-0.00103905,-0.00204488,-0.000274969,-0.0177752,0.0364141,-0.000954578,0,0,0,-0.000322656,-0.00306256,-0.00082666
4.031454105,-0.000658585,-0.0020891,-0.000356914,-0.0177845,0.0364219,-0.000940062,0,0,0,0.000424417,-0.00269132,-0.000985053
4.231355140,-0.000182068,-0.001992,-0.000482569,-0.0177826,0.0364415,-0.000955884,0,0,0,0.000976614,-0.00209342,-0.000876285
4.431392466,0.000155303,-0.00179731,-0.00053327,-0.017823,0.036463,-0.00104905,0,0,0,0.000438267,-0.00201519,-0.00062022
4.631390384,0.000344098,-0.00157622,-0.000525288,-0.0178085,0.0364286,-0.00104325,0,0,0,0.000332522,-0.00195282,-0.000300504
4.831354255,0.000337665,-0.00144438,-0.00046969,-0.0177925,0.0364363,-0.00106562,0,0,0,-0.0004364,-0.00248997,-1.04305e-05
5.031391604,0.000158539,-0.00128519,-0.000196833,-0.0178269,0.0364487,-0.00102876,0,0,0,-0.000573524,-0.00180232,0.000545666
5.231482706,-4.97523e-05,-0.00122735,0.000105882,-0.0178313,0.0364272,-0.00106178,0,0,0,-0.000823156,-0.00208594,0.000902093
5.431358874,-0.000154274,-0.00122479,0.000182994,-0.0178155,0.03642,-0.0010718,0,0,0,-0.00126685,-0.00274044,0.000398034
5.631352235,-0.000392579,-0.00145715,0.000226808,-0.0178549,0.0363932,-0.00110794,0,0,0,-0.00110195,-0.00396186,0.00033282
5.831351484,-0.000467505,-0.0018006,0.000248744,-0.017806,0.0364048,-0.00111761,0,0,0,-0.00113795,-0.00390355,0.000731392
6.031351925,-0.000560033,-0.00204759,0.000290876,-0.0177755,0.0364137,-0.00113762,0,0,0,-0.00108689,-0.00369319,0.000758139
6.231370504,-0.000597592,-0.00217785,0.000329769,-0.0177705,0.0363659,-0.00113373,0,0,0,-0.00077847,-0.00338539,4.30198e-05
6.431351653,-0.000450896,-0.00216717,0.000250982,-0.0177704,0.036389,-0.00114144,0,0,0,-0.000106821,-0.00309382,0.000106591
6.631385150,-0.000261879,-0.00204412,0.000150644,-0.017846,0.0364139,-0.00115644,0,0,0,0.000234552,-0.00250224,0.00018071
6.831325286,-8.74843e-05,-0.00185161,0.000137412,-0.0178541,0.0364042,-0.00111114,0,0,0,-0.000347661,-0.00256829,0.000676237
7.031352295,-8.37115e-05,-0.00164664,0.000181382,-0.0179024,0.036423,-0.00109373,0,0,0,-0.000591124,-0.00231917,0.000498356
7.231351221,-0.000135672,-0.00144312,0.000126607,-0.0179427,0.0363899,-0.00111212,0,0,0,-0.000635788,-0.00194741,-0.000131092
7.431372324,-0.000193866,-0.00120328,-5.32564e-06,-0.017936,0.0364044,-0.00111272,0,0,0,-0.000724843,-0.00122298,-0.000135078
7.631403153,-0.000188791,-0.000801583,-0.00021139,-0.01797,0.0364086,-0.00110258,-0.000231355,-0.00103972,-7.61434e-05,0.000205433,-0.000226273,-0.00077024
7.831353965,-3.57429e-05,-0.000470635,-0.000421607,-0.0179428,0.0363928,-0.00111434,-0.000231355,-0.00103972,-7.61434e-05,0.000475334,-0.00048904,-0.000811029
8.031420433,5.96068e-05,-0.000182983,-0.000646485,-0.0180112,0.0364253,-0.00107128,-0.000231355,-0.00103972,-7.61434e-05,-2.51595e-05,0.000400779,-0.00137328
8.231410421,4.94318e-05,0.000147258,-0.000876477,-0.0180347,0.0364037,-0.00103003,-0.000231355,-0.00103972,-7.61434e-05,-0.000922355,0.000376693,-0.0013939
8.431352476,-0.000176456,0.000298785,-0.00104298,-0.0179723,0.0364227,-0.00101262,-0.000231355,-0.00103972,-7.61434e-05,-0.000903465,-0.000249392,-0.00160465
8.631351087,-0.000416867,0.000283964,-0.00119147,-0.0180055,0.036424,-0.00112057,-0.000231355,-0.00103972,-7.61434e-05,-0.00162437,-0.000178787,-0.00163152
8.831363553,-0.000770879,0.000335772,-0.00110149,-0.0179509,0.0364443,-0.00112996,-0.000231355,-0.00103972,-7.61434e-05,-0.00266987,0.000805964,-0.000327557
9.031374457,-0.00105313,0.000466205,-0.000821111,-0.0179427,0.0364248,-0.00116589,-0.000231355,-0.00103972,-7.61434e-05,-0.00199331,0.000852852,0.000138953
9.231350247,-0.00106535,0.000547277,-0.000587917,-0.01797,0.0364026,-0.00117133,-0.000231355,-0.00103972,-7.61434e-05,-0.00152439,0.000370951,-0.000319334
9.431351412,-0.00105789,0.000541922,-0.000451338,-0.0179075,0.0364147,-0.00120959,-0.000231355,-0.00103972,-7.61434e-05,-0.00172708,0.000600412,-0.000354901
9.631349783,-0.00105063,0.000554577,-0.000359177,-0.0179022,0.0364879,-0.0012007,-0.000231355,-0.00103972,-7.61434e-05,-0.00158995,0.00113678,-0.000420941
9.831349346,-0.00103136,0.000654185,-0.00034901,-0.0179341,0.0364387,-0.00121037,-0.000231355,-0.00103972,-7.61434e-05,-0.00122941,0.00088744,-0.00103265
10.031351224,-0.000883884,0.000686503,-0.000528005,-0.0179511,0.0365093,-0.00124656,-0.000231355,-0.00103972,-7.61434e-05,-0.000481801,0.00118267,-0.00156405
10.231349245,-0.000668305,0.000734467,-0.000755013,-0.0179468,0.0364883,-0.00124241,-0.000231355,-0.00103972,-7.61434e-05,-0.00021547,0.00130859,-0.00152233
10.431350207,-0.000440577,0.000794301,-0.000892873,-0.0179439,0.0365062,-0.0012561,-0.000231355,-0.00103972,-7.61434e-05,-0.00060992,0.00156881,-0.00106708
10.631353656,-0.000271437,0.000868269,-0.000932857,-0.0179334,0.0364816,-0.00130441,-0.000231355,-0.00103972,-7.61434e-05,-0.000332647,0.00113727,-0.000808279
10.831350474,-0.000135962,0.000826185,-0.000872977,-0.0179301,0.0364747,-0.00130927,-0.000231355,-0.00103972,-7.61434e-05,0.000411641,0.000166092,-0.000871683
11.031387723,2.61042e-05,0.000629236,-0.000806743,-0.0179196,0.0364804,-0.00129648,-0.000231355,-0.00103972,-7.61434e-05,0.000592301,0.000186791,-0.000547491
11.231351226,0.000210826,0.000363995,-0.000659176,-0.0178004,0.0364913,-0.00127897,-0.000231355,-0.00103972,-7.61434e-05,0.00023489,-0.000580551,0.000556884
11.431349060,0.000353945,4.09295e-05,-0.000297478,-0.017769,0.0365126,-0.00130599,-0.000231355,-0.00103972,-7.61434e-05,0.00105537,-0.000829308,0.000975222
11.631381887,0.000588179,-0.000291148,5.36773e-05,-0.0177572,0.0365625,-0.00127856,-0.000231355,-0.00103972,-7.61434e-05,0.0015008,-0.00135985,0.00153768
11.831350803,0.000859109,-0.000645471,0.000520164,-0.0177304,0.0365427,-0.0013402,-0.000231355,-0.00103972,-7.61434e-05,0.00166509,-0.00228996,0.002589
12.031402055,0.00111314,-0.00106433,0.000982874,-0.0176919,0.036523,-0.00133646,-0.000231355,-0.00103972,-7.61434e-05,0.00221165,-0.00282794,0.00263203
12.231348779,0.0012583,-0.0015027,0.00134158,-0.017697,0.0365489,-0.00135103,-0.000231355,-0.00103972,-7.61434e-05,0.00146463,-0.00376755,0.00339487
12.431349176,0.00125825,-0.00196536,0.00168614,-0.0177408,0.0365571,-0.00140881,-0.000231355,-0.00103972,-7.61434e-05,0.00155875,-0.00367693,0.00348645
12.631385181,0.00119133,-0.00227271,0.0020192,-0.0177087,0.0365547,-0.00142043,-0.000231355,-0.00103972,-7.61434e-05,0.00162391,-0.00345978,0.00374687
12.831384299,0.00112544,-0.00234718,0.00215991,-0.01773,0.0365338,-0.00140731,-0.000231355,-0.00103972,-7.61434e-05,0.00102845,-0.00375156,0.00329006
13.031383575,0.000954872,-0.00238855,0.00216109,-0.0177328,0.0364443,-0.0014059,-0.000231355,-0.00103972,-7.61434e-05,0.000911903,-0.00338181,0.00281475
13.231363611,0.000807215,-0.00228702,0.00200714,-0.0176777,0.0364425,-0.00141044,-0.000231355,-0.00103972,-7.61434e-05,0.00118151,-0.00228315,0.00272633
13.431361886,0.000758532,-0.00205987,0.00177134,-0.017708,0.0364741,-0.00141212,-0.000231355,-0.00103972,-7.61434e-05,0.00112308,-0.00252066,0.00197778
13.631347742,0.000716174,-0.00179248,0.00144631,-0.0177609,0.0364359,-0.00141906,-0.000231355,-0.00103972,-7.61434e-05,0.00101519,-0.00140548,0.0016504
13.831349886,0.000666056,-0.00143677,0.00119618,-0.0177121,0.0364569,-0.00140799,-0.000231355,-0.00103972,-7.61434e-05,0.000859627,-0.000357207,0.0012086
14.031351110,0.000542549,-0.000917222,0.000888716,-0.0176644,0.0364617,-0.00139595,-0.000231355,-0.00103972,-7.61434e-05,0.000510145,-0.00051782,0.000424661
14.231386768,0.000413374,-0.000442697,0.000336936,-0.0176841,0.0364579,-0.00146364,-0.000231355,-0.00103972,-7.61434e-05,0.000778282,-0.000707984,-0.000470649
14.431400831,0.000382918,-0.000362531,6.50927e-06,-0.0176753,0.0364519,-0.00146393,-0.000231355,-0.00103972,-7.61434e-05,0.000615357,-0.000716694,-0.000900729
14.631349617,0.000318575,-0.000372692,-0.000481334,-0.0176677,0.0365087,-0.00149111,-0.000231355,-0.00103972,-7.61434e-05,0.000551075,-0.00128265,-0.00106381
14.831449350,0.0001857,-0.000724669,-0.000705085,-0.017632,0.0364976,-0.001567,-0.000231355,-0.00103972,-7.61434e-05,0.00011404,-0.00303181,0.000201847
15.031348180,8.83533e-05,-0.00111279,-0.000679181,-0.017595,0.0364672,-0.00156824,-0.000231355,-0.00103972,-7.61434e-05,0.000290888,-0.00291822,-0.000406089
15.231395575,5.86445e-05,-0.00144576,-0.000690202,-0.0176452,0.0364698,-0.00161488,-0.000231355,-0.00103972,-7.61434e-05,0.000140574,-0.0027978,-0.000648367
15.431384431,1.80742e-05,-0.00170241,-0.000706138,-0.0175998,0.0365294,-0.00163734,-0.000231355,-0.00103972,-7.61434e-05,8.56937e-05,-0.00341286,-0.0002377
15.631349562,-3.25545e-05,-0.00194279,-0.00060516,-0.0176338,0.0365009,-0.00164387,-0.000231355,-0.00103972,-7.61434e-05,-0.000115011,-0.00410026,5.22937e-05
15.831352453,5.14248e-05,-0.00222033,-0.0004078,-0.0176694,0.0365689,0.00175211,-0.000231355,-0.00103972,-7.61434e-05,0.000789412,-0.00440252,0.000571875
16.031395309,0.000293044,-0.00245889,-0.000224833,-0.0177203,0.0364956,0.00524501,-0.000231355,-0.00103972,-7.61434e-05,0.00038189,-0.0050688,0.00162732
16.231375132,0.000584391,-0.00271549,-4.47391e-05,-0.0177012,0.0365796,0.00915997,-0.000231355,-0.00103972,-7.61434e-05,0.00159801,-0.00548274,2.44466e-05
16.431391575,0.000815667,-0.00305149,9.63712e-05,-0.0177285,0.0365201,0.00963678,-0.000231355,-0.00103972,-7.61434e-05,0.00131762,-0.00638889,0.00152998
16.631405798,0.00094923,-0.0034884,0.000226745,-0.0177486,0.0365463,0.0107297,-0.000231355,-0.00103972,-7.61434e-05,0.00225526,-0.00556607,0.00136695
16.831389448,0.00116079,-0.00376522,0.000491937,-0.017825,0.0364336,0.0104072,-0.000231355,-0.00103972,-7.61434e-05,0.00212456,-0.00581166,0.0012457
17.031391361,0.00126952,-0.00372073,0.000814779,-0.0178107,0.036445,0.0109431,-0.000231355,-0.00103972,0.0499239,0.00226227,-0.00600357,0.00172516
17.231409958,0.00150436,-0.00353523,0.000989376,-0.0178676,0.0365087,0.010843,-0.000231355,-0.00103972,0.0999239,0.00285384,-0.00611584,-0.000860244
17.431388528,0.00174762,-0.00330808,0.000921771,-0.0177867,0.0365196,0.011041,-0.000231355,-0.00103972,0.149924,0.00337007,-0.00560082,0.00194568
17.631360431,0.00189674,-0.00308415,0.000766949,-0.0177413,0.0365274,0.01112,-0.000231355,-0.00103972,0.199924,0.00195466,-0.00575436,0.000940917
17.831353573,0.00182272,-0.00298561,0.000887937,-0.0178571,0.0364748,0.0113675,-0.000231355,-0.00103972,0.199924,0.000808276,-0.00590998,0.00195629
18.031358759,0.00155355,-0.00292623,0.00106446,-0.0179281,0.0364432,0.0112847,-0.000231355,-0.00103972,0.249924,0.00293446,-0.00419473,0.00233994
18.231392942,0.000954107,-0.00280681,0.00118109,-0.018245,0.0362798,0.0114913,-0.000231355,-0.00103972,0.299924,-0.00366768,-0.00673973,0.000233767
18.431401418,0.000225939,-0.00245709,0.000998175,-0.0183269,0.0362091,0.0113517,-0.000231355,-0.00103972,0.349924,0.000468668,-0.00122915,0.000337209
18.631403538,0.000102775,-0.00219343,0.00101877,-0.0188174,0.035645,0.0112191,-0.000231355,-0.00103972,0.399924,0.00146227,-0.00181234,0.000598902
18.831357746,0.000588576,-0.00242144,0.00123698,-0.0194094,0.03487,0.010967,-0.000231355,-0.00103972,0.399924,0.00284226,-0.000393526,-0.00445272
19.031395705,-0.000101556,-0.00302618,-0.000533801,-0.0207033,0.0333353,0.00790851,-0.000231355,-0.00103972,0.449924,-0.00594945,-0.00819342,-0.0150758
19.231387476,-0.00234247,-0.00322323,-0.00110624,-0.0191077,0.0260901,0.0111057,-0.000231355,-0.00103972,0.449924,-0.0223763,-0.00457397,0.0374276
19.431395760,-0.0130555,-0.00656522,0.0295362,0.00544854,0.0280322,0.0166568,-0.000231355,-0.00103972,0.499924,-0.0833001,-0.0420493,0.272641
19.631350454,-0.0315382,-0.0188713,0.117329,-0.0100817,0.0398922,0.019744,-0.000231355,-0.00103972,0.499924,-0.103864,-0.0832587,0.523755
19.831384140,-0.0481694,-0.0397877,0.253684,-0.0259107,0.0478878,0.0130292,-0.000231355,-0.00103972,0.499924,-0.0958209,-0.11769,0.595728
20.031386612,-0.0599092,-0.064649,0.379346,-0.042862,0.0520341,0.00609313,-0.000231355,-0.00103972,0.499924,-0.0788287,-0.118891,0.468435
20.231350569,-0.0645884,-0.0840182,0.459116,-0.0493777,0.0534209,-0.00292802,-0.000231355,-0.00103972,0.499924,-0.0525673,-0.0730801,0.338837
20.431384506,-0.0626939,-0.0932925,0.499883,-0.0466606,0.0497725,-0.0121095,-0.000231355,-0.00103972,0.499924,-0.0372677,-0.0402514,0.261062
20.631367580,-0.0590979,-0.0936373,0.518126,-0.0416611,0.0468883,-0.019151,-0.000231355,-0.00103972,0.499924,-0.0342122,-0.00638694,0.218443
20.831385831,-0.0576836,-0.0870855,0.536495,-0.0396698,0.0486848,-0.0206106,-0.000231355,-0.00103972,0.499924,-0.0337411,0.0149864,0.204488
21.031350523,-0.0598864,-0.0761039,0.55715,-0.0352873,0.0516877,-0.0202987,-0.000231355,-0.00103972,0.499924,-0.0342785,0.0401843,0.182117
21.231387800,-0.0659372,-0.0637627,0.583371,-0.0327449,0.0568626,-0.0213505,-0.000231355,-0.00103972,0.499924,-0.0348026,0.0438437,0.160203
21.431386393,-0.0730475,-0.0522809,0.611413,-0.0305659,0.0594381,-0.0237172,-0.000231355,-0.00103972,0.499924,-0.0289862,0.0468085,0.139705
21.631349873,-0.077441,-0.0433299,0.637941,-0.0292122,0.0610194,-0.0255541,-0.000231355,-0.00103972,0.499924,-0.018968,0.0412061,0.110266
21.831389022,-0.0784801,-0.03808,0.65697,-0.0267929,0.0623399,-0.0258948,-0.000231355,-0.00103972,0.499924,-0.00468399,0.0314809,0.0916895
22.031389476,-0.0765394,-0.0344828,0.675492,-0.0271177,0.0628152,-0.0247424,-0.000231355,-0.00103972,0.499924,0.00889641,0.0197838,0.0714617
22.231406736,-0.0721297,-0.0333986,0.690328,-0.0291918,0.0610541,-0.0230655,-0.000231355,-0.00103972,0.499924,0.0191533,0.00937274,0.0561796
22.431350816,-0.0656574,-0.0332438,0.704308,-0.0322152,0.0597055,-0.0208274,-0.000231355,-0.00103972,0.499924,0.0237491,0.00249581,0.0356584
22.631385976,-0.0597187,-0.0315082,0.715778,-0.0306887,0.0574144,-0.0196586,-0.000231355,-0.00103972,0.499924,0.0287292,-0.000621724,0.0322181
22.831358432,-0.0535985,-0.0282983,0.725883,-0.0349832,0.0559607,-0.0177465,-0.000231355,-0.00103972,0.499924,0.0304776,0.00452626,0.0209367
23.031410857,-0.048652,-0.0223226,0.733628,-0.0357041,0.0541973,-0.0144606,-0.000231355,-0.00103972,0.499924,0.0229142,0.0113375,0.00260197
23.231409590,-0.045491,-0.014254,0.739586,-0.0342118,0.0541996,-0.01017,-0.000231355,-0.00103972,0.499924,0.0175137,0.0224962,-0.00672332
23.431406591,-0.0428387,-0.00547946,0.744588,-0.0281136,0.0562203,-0.00536008,-0.000231355,-0.00103972,0.499924,0.0179824,0.0265125,-0.0097404
23.631412171,-0.0398174,0.000916657,0.749391,-0.0258814,0.0576215,-0.00278051,-0.000231355,-0.00103972,0.499924,0.0197211,0.0193961,-0.0122215
23.831353705,-0.0353531,0.00273769,0.753572,-0.0272052,0.0562458,-0.00357892,-0.000231355,-0.00103972,0.499924,0.0209387,0.00617649,-0.0192225
24.031352351,-0.0301106,0.00124778,0.756307,-0.0321602,0.0555697,-0.00473172,-0.000231355,-0.00103972,0.499924,0.0213645,0.00834111,-0.0295341
24.231351582,-0.0254401,-0.0012564,0.757143,-0.029725,0.0551624,-0.00749011,-0.000231355,-0.00103972,0.499924,0.0173809,0.00484575,-0.0396193
24.431351569,-0.0214265,-0.00501195,0.756017,-0.0311015,0.0538147,-0.0122932,-0.000231355,-0.00103972,0.499924,0.0191369,-0.000236913,-0.0471282
24.631349011,-0.0193002,-0.0107696,0.755166,-0.0313455,0.0509252,-0.0165326,-0.000231355,-0.00103972,0.499924,0.00767357,-0.0141526,-0.0458102
24.831367480,-0.0204418,-0.0191182,0.757452,-0.0364055,0.0531707,-0.0194141,-0.000231355,-0.00103972,0.499924,0.0021809,-0.010068,-0.0434526
25.031393841,-0.0233855,-0.0266008,0.760933,-0.0383691,0.0554963,-0.0198865,-0.00179152,0.0149512,0.0253722,-0.00602819,-0.00597603,-0.0402087
25.231451932,-0.0256899,-0.0309897,0.742468,-0.0515743,0.0694627,-0.0197996,-0.000381665,0.0168781,0.127457,0.0170062,0.0217474,-0.266676
25.431424865,-0.0237104,-0.0284068,0.68166,-0.0463403,0.0608796,-0.0174941,0.000746218,0.0184196,0.209124,0.0380891,0.0545356,-0.334276
25.631387925,-0.0174221,-0.019113,0.622815,-0.0389041,0.0552673,-0.0177679,0.0018741,0.0199612,0.290792,0.0312202,0.047396,-0.246891
25.831399065,-0.00886156,-0.00517218,0.590406,-0.0328908,0.0536353,-0.0209707,0.00272001,0.0211173,0.352043,0.0275378,0.0520337,-0.141466
26.031394655,0.000494229,0.00915162,0.586652,-0.0268297,0.0517987,-0.0234683,0.00384789,0.0226588,0.433711,0.0235768,0.0304624,-0.055022
26.231367251,0.0074858,0.0180231,0.59724,-0.028627,0.0509999,-0.0216314,0.00497578,0.0242004,0.515378,0.00978776,0.00480177,-0.00219253
26.431394103,0.0131103,0.025125,0.616414,-0.0293436,0.0487888,-0.0139481,0.00610366,0.0257419,0.597046,-0.00491395,0.000909967,0.0295888
26.631357501,0.0138468,0.0291834,0.639086,-0.0322065,0.0494263,-0.002926,0.00723154,0.0272834,0.678714,-0.0193849,-0.00787153,0.075101
26.831363501,0.00978562,0.0311217,0.665306,-0.033468,0.0530429,0.00774669,0.00835942,0.028825,0.760381,-0.0372559,-0.0103149,0.128174
27.031393196,0.00342145,0.0325745,0.695367,-0.0349041,0.0586446,0.0135171,0.00909833,0.0300153,0.861567,-0.0372636,-0.00990755,0.164014
27.231365480,-0.00318899,0.0334342,0.731147,-0.0337644,0.0603316,0.0147911,0.0633131,0.0308754,0.970776,-0.0308731,-0.00387995,0.209192
27.431491655,-0.00678174,0.0320061,0.768761,-0.0347589,0.079433,0.0148042,0.16233,0.0322033,0.988995,-0.0194987,-0.0112148,0.269018
27.631390988,-0.00205444,0.0294704,0.807129,-0.0381839,0.104749,0.0129038,0.268308,0.0331079,0.994396,0.045147,-0.0048129,0.267978
27.831391694,0.020455,0.0264141,0.836013,-0.0376495,0.122295,0.0113464,0.349013,0.0333887,0.997316,0.151706,-0.00511773,0.243998
28.031380990,0.0658288,0.0227643,0.853364,-0.0383812,0.118811,0.013775,0.485976,0.0331234,1.00077,0.26549,0.00565838,0.224067
28.231359537,0.132289,0.0213072,0.864224,-0.0377403,0.114615,0.0186379,0.568377,0.032681,1.00161,0.362093,0.0155615,0.221615
28.431390958,0.213826,0.0228016,0.874385,-0.0295418,0.108017,0.0237581,0.69961,0.0320567,1.00208,0.444255,0.0256926,0.214201
28.631365853,0.303269,0.0255831,0.887347,-0.0281396,0.102943,0.0256089,0.776848,0.0318635,1.00224,0.507448,0.0316342,0.216138
28.831396468,0.396064,0.030404,0.903412,-0.0302285,0.0973825,0.0269555,0.880382,0.0317437,1.0024,0.549854,0.0334659,0.218221
29.031355764,0.490023,0.0398977,0.921342,-0.022176,0.0949548,0.0252538,0.985097,0.0316769,1.00247,0.575275,0.0416391,0.209433
29.231353578,0.581949,0.0498458,0.936384,-0.0171988,0.09512,0.0179805,1.09058,0.0315914,1.00249,0.596247,0.0344728,0.182481
29.431420968,0.667747,0.0538594,0.947284,-0.0160662,0.0960381,0.0125334,1.22246,0.0314559,1.0025,0.606446,0.0159663,0.170504
29.631354892,0.748696,0.0507355,0.958002,-0.0178741,0.102733,0.0105408,1.30125,0.0313746,1.00251,0.616682,-0.00139844,0.169145
29.831394415,0.834051,0.0430969,0.970305,-0.0218209,0.107577,0.0105471,1.40591,0.0312753,1.00251,0.646829,-0.0128211,0.166535
30.031394036,0.931174,0.0367655,0.982542,-0.0259505,0.105373,0.0117176,1.51022,0.0311848,1.00252,0.681874,-0.0101293,0.148709
30.231391696,1.03856,0.0373327,0.995847,-0.0285083,0.0994801,0.0134385,1.60948,0.0257398,1.00237,0.699338,-0.00038739,0.149056
30.431368611,1.15519,0.0479821,1.0117,-0.0209016,0.093316,0.0130041,1.67146,-0.0645331,1.00028,0.707397,0.018715,0.143512
30.631426789,1.27996,0.0657538,1.02847,0.0135086,0.0739659,0.00787299,1.65627,-0.186872,1.00031,0.707833,-0.00194975,0.111276
30.831400738,1.40049,0.0772574,1.04547,0.0463585,0.035832,0.00197439,1.64363,-0.249991,1.00096,0.638824,-0.0793852,0.0782435
31.031354896,1.48325,0.0716456,1.05956,0.0600746,0.0119825,-0.000966275,1.62781,-0.334599,1.00184,0.504403,-0.202102,0.050668
31.231357110,1.55,0.0394828,1.07225,0.0564407,0.00534457,-0.00167103,1.61665,-0.425689,1.00229,0.339786,-0.328949,0.0318468
31.431384371,1.58577,-0.0173654,1.07995,0.0472803,0.0180979,-0.00206274,1.61419,-0.565734,1.00229,0.201055,-0.430242,0.0295844
31.631353631,1.6021,-0.0918044,1.08841,0.0479796,0.0349409,-0.00367374,1.62874,-0.64017,1.00216,0.0951774,-0.520266,0.0414724
31.831357091,1.61366,-0.179527,1.10197,0.0383788,0.0579746,-0.00426378,1.68689,-0.711315,1.00141,0.0508869,-0.585369,0.0287228
32.031398773,1.6414,-0.293096,1.11751,0.0199131,0.0773519,-0.00552252,1.7878,-0.733675,1.00053,0.0618886,-0.618356,-0.0043879
32.231393023,1.68935,-0.393935,1.12963,-0.008331,0.0974364,-0.00640784,1.87832,-0.724647,1.00065,0.116334,-0.6137,-0.0100993
32.431389817,1.76769,-0.486605,1.14048,-0.0352626,0.0904231,-0.0059308,1.96076,-0.706313,1.00132,0.201618,-0.541369,-0.0228419
32.631377630,1.86944,-0.558984,1.14473,-0.0561802,0.0725853,-0.00452956,2.04019,-0.686068,1.00195,0.258536,-0.424101,-0.0362466
32.831359228,1.97901,-0.602251,1.13779,-0.0574988,0.0517419,-0.00186309,2.14182,-0.662727,1.00234,0.278305,-0.291815,-0.0424089
33.031392624,2.08289,-0.619613,1.12774,-0.0476105,0.0443497,-0.000379228,2.24465,-0.646401,1.00236,0.270896,-0.176064,-0.030095
33.231354232,2.17105,-0.623003,1.12345,-0.036544,0.0509753,0.000747977,2.34404,-0.637326,1.00238,0.245434,-0.0980485,-0.0140721
33.431362592,2.24839,-0.626687,1.12383,-0.0217359,0.0602469,0.00296451,2.44401,-0.630886,1.00246,0.240513,-0.0489736,-0.0136116
33.631362139,2.32587,-0.642957,1.1278,-0.0207375,0.0675677,0.00371997,2.54597,-0.623771,1.0025,0.255707,-0.0407974,-0.00748651
33.831366311,2.4081,-0.673096,1.13349,-0.0291061,0.0683779,0.00461266,2.64937,-0.614915,1.00251,0.28345,-0.0273587,-0.0126622
34.031401594,2.49821,-0.708555,1.13376,-0.0417871,0.0710217,0.00578048,2.75311,-0.604771,1.00251,0.312809,-0.00335647,-0.0291397
34.231391040,2.59484,-0.74114,1.12794,-0.0503532,0.0670414,0.00585009,2.85645,-0.594223,1.00251,0.34202,0.0409523,-0.0271781
34.431421900,2.67675,-0.761455,1.12423,-0.0571076,0.0627118,0.00514193,2.98481,-0.581364,1.00252,0.353896,0.091002,-0.016528
34.631364619,2.78924,-0.776334,1.11917,-0.0580318,0.0632906,0.00450169,3.06152,-0.573982,1.00252,0.368189,0.153128,-0.0136831
34.831395641,2.88578,-0.777557,1.11644,-0.0533986,0.0588882,0.00113892,3.16368,-0.564389,1.00252,0.375362,0.201822,-0.00152822
35.031366573,2.97707,-0.768813,1.11673,-0.0482266,0.0617067,-0.00316171,3.26581,-0.554941,1.00252,0.372874,0.234751,-0.00329036
35.231366471,3.05919,-0.751946,1.11703,-0.0392497,0.0664807,-0.00440416,3.36792,-0.545513,1.00252,0.369652,0.249015,-0.00304446
35.431355971,3.13468,-0.731066,1.11381,-0.0320998,0.0730344,-0.00521505,3.46999,-0.536069,1.00252,0.379555,0.253243,-0.0121974
35.631367930,3.21046,-0.710998,1.10951,-0.0317148,0.0790596,-0.00347051,3.57196,-0.526625,1.00252,0.394968,0.242672,0.00251064
35.831393563,3.29384,-0.692497,1.10521,-0.028027,0.0826491,0.000215684,3.67382,-0.517213,1.00252,0.428291,0.228084,0.00244757
36.031391803,3.38336,-0.678044,1.10088,-0.0294491,0.0797514,0.00399231,3.77557,-0.507853,1.00252,0.453072,0.204529,0.0107924
36.231368169,3.47487,-0.667609,1.09516,-0.0330078,0.0776588,0.00580667,3.87723,-0.498553,1.00252,0.474668,0.197447,0.0013425
36.431380375,3.51886,-0.663469,1.09155,-0.0351039,0.0799636,0.00592012,4.00419,-0.486999,1.00252,0.487075,0.188482,0.0122721
36.631393599,3.6586,-0.646937,1.07991,-0.0373478,0.0776192,0.00366884,4.08031,-0.480101,1.00252,0.507363,0.196112,0.010676
36.831357689,3.74908,-0.630135,1.07407,-0.0354581,0.080415,0.00192883,4.18174,-0.470934,1.00252,0.512746,0.194013,0.022601
37.031355601,3.83572,-0.609687,1.06767,-0.0313964,0.0834759,0.000553371,4.2831,-0.461801,1.00252,0.520071,0.189436,0.0234242
37.231355731,3.91877,-0.585375,1.06153,-0.0278019,0.0865996,0.0022559,4.38438,-0.452704,1.00252,0.528547,0.181555,0.0374401
37.431353915,3.99722,-0.558518,1.05469,-0.0275309,0.0930151,0.00634082,4.4856,-0.443641,1.00252,0.538405,0.173796,0.0536274
37.631389985,4.07174,-0.53088,1.04583,-0.0250935,0.103588,0.00850088,4.58676,-0.434611,1.00252,0.558094,0.162164,0.0621312
37.831359335,4.13667,-0.507079,1.03632,-0.0214289,0.107101,0.00809539,4.68785,-0.425613,1.00252,0.591795,0.151986,0.0597396
38.031361825,4.24321,-0.470525,1.02311,-0.0155159,0.107749,0.00804895,4.78888,-0.416647,1.00252,0.626056,0.139053,0.076755
38.231395545,4.35935,-0.435135,1.01637,-0.0105652,0.0989451,0.00692655,4.88986,-0.40771,1.00252,0.669852,0.121715,0.0757125
38.431352263,4.47273,-0.404715,1.01356,-0.00336248,0.0826043,0.00532669,4.99079,-0.3988,1.00252,0.69452,0.0924615,0.0733286
38.631391988,4.61532,-0.372386,1.01192,0.00158891,0.0675168,0.00266252,5.09166,-0.389917,1.00252,0.685885,0.0636248,0.0565208
38.831390409,4.75519,-0.347622,1.0097,-0.000140779,0.0566924,-0.000186223,5.19248,-0.381061,1.00252,0.655096,0.0266822,0.0437478
39.031353497,4.88345,-0.330005,1.00626,-0.00231303,0.0490719,-0.00156245,5.29325,-0.372228,1.00252,0.60306,-0.00582761,0.0326412
39.231359338,4.99313,-0.317465,1.00454,-0.00285946,0.0536524,-0.00186507,5.39398,-0.36342,1.00252,0.538215,-0.0396351,0.0375021
39.431355645,5.08061,-0.309203,1.00669,-0.00834247,0.0691245,-0.00203624,5.49466,-0.354633,1.00252,0.491516,-0.055678,0.053132
39.631392163,5.16308,-0.296731,1.01791,-0.0138304,0.0866546,-0.00225936,5.5953,-0.345869,1.00252,0.475398,-0.0502215,0.0606446
39.831354219,5.23736,-0.279903,1.03078,-0.0120636,0.0982092,-0.00155507,5.6959,-0.337125,1.00252,0.490337,-0.0500139,0.061748
40.031394109,5.32889,-0.25748,1.04175,-0.00632178,0.10136,0.000423766,5.79646,-0.328402,1.00252,0.528416,-0.0432116,0.0594488
40.231390885,5.4214,-0.23623,1.04806,-0.000576893,0.0955349,0.00169896,5.8969,-0.319596,1.00252,0.571744,-0.0445401,0.049412
40.431358439,5.5656,-0.206806,1.05093,0.00532218,0.0801588,0.00143945,5.99027,-0.275494,1.00153,0.590451,-0.0543648,0.0295785
40.631382162,5.69305,-0.186823,1.05075,-0.00120694,0.0618743,0.00103825,6.00544,-0.184955,1.00022,0.580806,-0.0707277,0.0178622
40.831355082,5.81463,-0.169725,1.05041,-0.0251137,0.0330197,0.00223035,5.99088,-0.0854857,1.00051,0.522276,-0.0531484,0.00638597
41.031357084,5.92069,-0.145911,1.05042,-0.0458927,0.00391163,0.00523783,5.97391,-0.00123233,1.00132,0.411879,0.0253682,-0.00388375
41.231355551,5.99753,-0.110726,1.05131,-0.0488347,-0.00754836,0.00683168,5.95836,0.0814759,1.00202,0.264707,0.0916807,0.0085951
41.431352994,6.04465,-0.0651207,1.05144,-0.0524721,-0.00354968,0.00679438,5.94472,0.179345,1.00238,0.13065,0.170114,0.00294054
41.631390381,6.06851,-0.0125822,1.04835,-0.0547248,0.00554196,0.00510611,5.93908,0.287517,1.00233,0.0160388,0.229804,0.00215775
41.831351762,6.07988,0.0457951,1.04273,-0.0588208,0.0168878,0.0015609,5.94124,0.390017,1.00235,-0.0644428,0.302406,-0.00259581
42.031356581,6.08729,0.109361,1.04125,-0.0596485,0.0268743,-0.00305246,5.94936,0.4909,1.00245,-0.110552,0.376309,0.0124441
42.231364466,6.09462,0.164783,1.04381,-0.0546809,0.0325287,-0.00718942,6.00931,0.562457,1.00111,-0.131943,0.421531,0.0186487
42.431390611,6.11271,0.241393,1.0488,-0.0485743,0.0511466,-0.0133763,6.1053,0.560545,1.00014,-0.122135,0.446913,0.0107662
42.631391733,6.14479,0.303037,1.04942,-0.0288114,0.0713705,-0.016605,6.1926,0.538489,1.00059,-0.0629887,0.431022,-0.003369
42.831389637,6.18817,0.346577,1.04777,-0.0119669,0.0688744,-0.0154399,6.27295,0.514206,1.00147,0.0142081,0.377458,-0.0100248
43.031374711,6.25113,0.382699,1.04445,-0.000873231,0.0598434,-0.0124188,6.39759,0.480505,1.00231,0.0739239,0.305929,-0.0175527
43.231352704,6.32795,0.400116,1.04034,-0.000351581,0.0566161,-0.0077676,6.47777,0.464477,1.00238,0.116268,0.224397,-0.0102777
43.431352178,6.39146,0.399772,1.03823,-0.00795111,0.0629409,-0.00250596,6.57824,0.451605,1.00233,0.150385,0.146604,-0.00325995
43.631361817,6.4532,0.394007,1.03725,-0.0145077,0.0690532,0.00257264,6.67615,0.442559,1.00241,0.194833,0.100106,0.00463221
43.831395937,6.5136,0.387507,1.03766,-0.0220486,0.0740968,0.00791106,6.77476,0.43297,1.0025,0.236467,0.0768444,0.0140959
44.031392158,6.57302,0.38649,1.03987,-0.0240387,0.0760574,0.013181,6.87509,0.421283,1.00251,0.279186,0.0752228,0.0191846
44.231355439,6.63107,0.39468,1.04331,-0.0191526,0.0830817,0.0155725,6.97662,0.40797,1.00251,0.318426,0.0793785,0.020917
44.431398341,6.68901,0.410247,1.04545,-0.0101507,0.0902671,0.0157896,7.07847,0.39413,1.00251,0.358719,0.0669703,0.0263788
44.631355313,6.73928,0.425378,1.04647,-0.00326058,0.096457,0.0141713,7.18004,0.380559,1.00252,0.406106,0.0461034,0.0297445
44.831360145,6.80328,0.443553,1.04612,0.00181224,0.102082,0.0112144,7.2812,0.367502,1.00252,0.456297,0.02727,0.0399315
45.031354663,6.88248,0.462679,1.04525,0.00818108,0.105541,0.00491288,7.38206,0.354836,1.00252,0.504925,-0.00295342,0.0410749
45.231357067,6.95177,0.475798,1.04492,0.0173443,0.107006,-0.00202388,7.48281,0.342343,1.00252,0.547064,-0.0390822,0.0448309
45.431353159,7.02033,0.483278,1.04412,0.0197143,0.111255,-0.00804302,7.58354,0.329876,1.00252,0.578831,-0.0865602,0.0433721
45.631394469,7.08743,0.483852,1.04402,0.016078,0.119387,-0.0106168,7.68427,0.317391,1.00252,0.611797,-0.13579,0.0609891
45.831356249,7.15225,0.47914,1.04249,0.0134624,0.124111,-0.0124662,7.78499,0.304915,1.00252,0.645187,-0.171373,0.058583
46.031369969,7.20681,0.472775,1.03824,0.0101772,0.130595,-0.0160961,7.88566,0.292485,1.00252,0.679999,-0.200937,0.0579878
46.231404064,7.29078,0.462923,1.02944,0.00407957,0.135082,-0.0158656,7.98627,0.280126,1.00252,0.722,-0.221869,0.0597588
46.431371497,7.36415,0.455208,1.02374,0.00251062,0.132068,-0.0118498,8.08683,0.267841,1.00252,0.757095,-0.234021,0.0805165
46.631358855,7.39513,0.451603,1.02204,0.00181862,0.132426,-0.0102702,8.18733,0.255621,1.00252,0.778595,-0.240051,0.0806122
46.831399884,7.39513,0.451603,1.02204,0.00181862,0.132426,-0.0102702,8.28778,0.243457,1.00252,0.778595,-0.240051,0.0806122
47.031361975,7.39513,0.451603,1.02204,0.00181862,0.132426,-0.0102702,8.38819,0.231341,1.00252,0.778595,-0.240051,0.0806122
47.231396003,7.39513,0.451603,1.02204,0.00181862,0.132426,-0.0102702,8.48856,0.219271,1.00252,0.778595,-0.240051,0.0806122
47.431378771,7.39513,0.451603,1.02204,0.00181862,0.132426,-0.0102702,8.58889,0.207246,1.00252,0.778595,-0.240051,0.0806122
47.631395830,7.42799,0.447624,1.02049,0.00222017,0.133014,-0.0089404,8.68919,0.195266,1.00252,0.439944,-0.251782,0.0186555
47.831381339,7.42799,0.447624,1.02049,0.00222017,0.133014,-0.0089404,8.78945,0.183328,1.00252,0.261017,-0.286909,-0.0816667
48.031361382,7.42799,0.447624,1.02049,0.00222017,0.133014,-0.0089404,8.88967,0.171433,1.00252,0.111802,-0.305893,-0.210446
48.231356776,7.42799,0.447624,1.02049,0.00222017,0.133014,-0.0089404,8.98985,0.159577,1.00252,0.247476,-0.232363,0.0549101
48.431362624,8.20115,0.116192,0.869951,-0.056519,0.222979,-0.00305068,9.09,0.147758,1.00252,0.520432,-0.157299,0.19153
48.631394520,8.38184,0.106667,0.86459,-0.0494273,0.17166,-0.00308786,9.19012,0.135977,1.00252,0.760045,-0.0840462,0.202276
48.831393634,8.62399,0.109815,0.872114,-0.0380422,0.0988048,-0.00291079,9.29022,0.124229,1.00252,0.870853,-0.0418435,0.19696
49.031358493,8.885,0.11571,0.897696,-0.0260379,0.0382865,-0.000825855,9.39028,0.112516,1.00252,0.862066,-0.00125526,0.157148
49.231359573,8.885,0.11571,0.897696,-0.0260379,0.0382865,-0.000825855,9.49032,0.100834,1.00252,0.862066,-0.00125526,0.157148
49.431412330,8.885,0.11571,0.897696,-0.0260379,0.0382865,-0.000825855,9.59034,0.0891831,1.00252,0.862066,-0.00125526,0.157148
49.631362078,9.41471,0.0736503,0.96719,-0.0279142,0.00434263,0.00248523,9.69032,0.0775613,1.00252,0.353978,-0.0079957,0.0414638
49.831396865,9.44024,0.0644431,0.968905,-0.0297188,0.0274424,0.00228632,9.79028,0.0659676,1.00252,0.323351,-0.00198526,0.0234067
50.031351358,9.44024,0.0644431,0.968905,-0.0297188,0.0274424,0.00228632,9.84025,0.0601813,1.00252,0.323351,-0.00198526,0.0234067
50.231350115,9.58219,-0.0159407,0.972511,-0.0376995,0.0974241,0.00930147,9.84025,0.0601813,1.00252,0.219107,0.0332108,0.0161357
50.431389189,9.66522,-0.04468,0.985397,-0.0438729,0.0761501,0.0118609,9.84025,0.0601813,1.00252,0.241707,0.0543608,0.0237294
50.631390735,9.69191,-0.0498237,0.989933,-0.0463198,0.0641528,0.0123696,9.84025,0.0601813,1.00252,0.244824,0.0656719,0.0182274
50.831393583,9.69191,-0.0498237,0.989933,-0.0463198,0.0641528,0.0123696,9.84025,0.0601813,1.00252,0.246081,0.0700252,0.0186276
51.031358243,9.69191,-0.0498237,0.989933,-0.0463198,0.0641528,0.0123696,9.84025,0.0601813,1.00252,0.246081,0.0700252,0.0186276
51.231390581,9.69191,-0.0498237,0.989933,-0.0463198,0.0641528,0.0123696,9.84025,0.0601813,1.00252,0.246081,0.0700252,0.0186276
51.431409820,9.69191,-0.0498237,0.989933,-0.0463198,0.0641528,0.0123696,9.84025,0.0601813,1.00252,0.246081,0.0700252,0.0186276
51.631371281,9.95821,-0.00430473,1.05235,-0.0118231,0.0193129,0.0114015,9.84025,0.0601813,1.00252,-0.145303,0.155151,-0.0223957
51.831392000,9.94474,0.00752886,1.07039,0.00289228,0.0240246,0.010597,9.84025,0.0601813,1.00252,-0.20843,0.10805,-0.0512651
52.031357088,9.92427,-0.00124422,1.07445,0.000533821,0.0388989,0.00502707,9.84025,0.0601813,1.00252,-0.240258,0.0517391,-0.0636624
52.231464028,9.91757,-0.00658985,1.07442,-0.00414933,0.0458733,0.00204071,9.84025,0.0601813,1.00252,-0.240216,0.0359769,-0.0752643
52.431353481,9.91757,-0.00658985,1.07442,-0.00414933,0.0458733,0.00204071,9.84025,0.0601813,1.00252,-0.240216,0.0359769,-0.0752643
52.631387682,9.91757,-0.00658985,1.07442,-0.00414933,0.0458733,0.00204071,9.84025,0.0601813,1.00252,-0.240216,0.0359769,-0.0752643
52.831386840,9.91757,-0.00658985,1.07442,-0.00414933,0.0458733,0.00204071,9.84025,0.0601813,1.00252,-0.240216,0.0359769,-0.0752643
53.031391329,9.91757,-0.00658985,1.07442,-0.00414933,0.0458733,0.00204071,9.84025,0.0601813,1.00252,-0.240216,0.0359769,-0.0752643
53.231352184,9.91757,-0.00658985,1.07442,-0.00414933,0.0458733,0.00204071,9.84025,0.0601813,1.00252,-0.240216,0.0359769,-0.0752643
53.431370282,9.91757,-0.00658985,1.07442,-0.00414933,0.0458733,0.00204071,9.84025,0.0601813,1.00252,-0.240216,0.0359769,-0.0752643
53.631469277,9.72048,-0.087522,1.01796,-0.0527204,0.108782,0.0205108,9.84025,0.0601813,1.00252,-0.251041,-0.0190562,-0.132749
53.831544473,9.69484,-0.0876276,1.00556,-0.0563226,0.120507,0.015199,9.84025,0.0601813,1.00252,-0.15448,0.030764,-0.0417881
54.031317927,9.6661,-0.0742872,0.992994,-0.048754,0.116135,0.00933301,9.84025,0.0601813,1.00252,-0.0583737,0.0730114,-0.005485
54.231354538,9.6626,-0.0623458,0.99018,-0.0409357,0.108356,0.00770172,9.84025,0.0601813,1.00252,-0.00773149,0.0981418,0.00450324
54.431387073,9.6626,-0.0623458,0.99018,-0.0409357,0.108356,0.00770172,9.84025,0.0601813,1.00252,-0.00773149,0.0981418,0.00450324
54.631354135,9.6626,-0.0623458,0.99018,-0.0409357,0.108356,0.00770172,9.84025,0.0601813,1.00252,-0.00773149,0.0981418,0.00450324
54.831354906,9.6626,-0.0623458,0.99018,-0.0409357,0.108356,0.00770172,9.84025,0.0601813,1.00252,-0.00773149,0.0981418,0.00450324
55.031388162,9.6626,-0.0623458,0.99018,-0.0409357,0.108356,0.00770172,9.84025,0.0601813,1.00252,-0.00773149,0.0981418,0.00450324
55.231353744,9.6626,-0.0623458,0.99018,-0.0409357,0.108356,0.00770172,9.84025,0.0601813,1.00252,-0.00773149,0.0981418,0.00450324
55.431395162,9.67238,-0.0104829,0.944276,-0.00710605,0.0162588,0.0257246,9.84025,0.0601813,1.00252,-0.166545,-0.0232427,-0.290851
55.631356319,9.65417,-0.0164684,0.924327,-0.0086555,0.0259938,0.0282829,9.65417,-0.0164684,0.924327,-0.177236,-0.0297205,-0.284914
55.831384796,9.5674,-0.0277358,0.915763,-0.0390929,0.129376,0.0338862,9.65417,-0.0164684,0.924327,-0.0684059,0.0176294,0.0674343
56.031382764,9.54526,-0.0162503,0.95318,-0.0136842,0.0821581,0.0346983,9.65417,-0.0164684,0.924327,0.0138853,0.0474678,0.0786937
56.231381342,9.54526,-0.0162503,0.95318,-0.0136842,0.0821581,0.0346983,9.65417,-0.0164684,0.924327,0.0138853,0.0474678,0.0786937
56.431354937,9.54526,-0.0162503,0.95318,-0.0136842,0.0821581,0.0346983,9.65417,-0.0164684,0.924327,0.0138853,0.0474678,0.0786937
56.631345227,9.54526,-0.0162503,0.95318,-0.0136842,0.0821581,0.0346983,9.65417,-0.0164684,0.924327,0.0138853,0.0474678,0.0786937
56.831381325,9.54526,-0.0162503,0.95318,-0.0136842,0.0821581,0.0346983,9.65417,-0.0164684,0.924327,0.0138853,0.0474678,0.0786937
57.031351509,9.4506,0.0601484,0.948784,-0.00225672,0.0364214,-0.000672735,9.65417,-0.0164684,0.924327,0.0656448,-0.0561586,-0.0601792
57.231385945,9.42679,0.0611991,0.93494,0.00668317,0.0639357,-0.00746748,9.65417,-0.0164684,0.924327,0.0338112,-0.0749464,-0.0393983
57.431383949,9.40136,0.0516329,0.924132,0.00306139,0.0869028,-0.01995,9.65417,-0.0164684,0.874327,0.0564577,-0.111479,-0.0327729
57.631362465,9.38721,0.0333861,0.916101,-0.00760617,0.0925021,-0.0327801,9.65417,-0.0164684,0.874327,0.107444,-0.129898,-0.0441141
57.831351829,9.38353,0.0218697,0.910939,-0.0156167,0.0916628,-0.0391038,9.65417,-0.0164684,0.874327,0.128193,-0.131163,-0.0437874
58.031351656,9.38175,0.0120799,0.903166,-0.0241425,0.0863389,-0.0429329,9.65417,-0.0164684,0.824327,0.172592,-0.0912038,-0.0241667
58.231349577,9.38175,0.0120799,0.903166,-0.0241425,0.0863389,-0.0429329,9.65417,-0.0164684,0.824327,0.172592,-0.0912038,-0.0241667
58.431346573,9.37483,0.0595809,0.883603,0.00166476,0.0908178,-0.0442398,9.65417,-0.0164684,0.824327,0.196287,-0.0305284,-0.0300929
58.631385953,9.36755,0.0925061,0.861071,0.0198799,0.0954091,-0.0451391,9.65417,-0.0164684,0.774327,0.209581,-0.0508609,-0.0507906
58.831347915,9.36377,0.105372,0.847386,0.0227521,0.0963996,-0.0443543,9.65417,-0.0164684,0.774327,0.214244,-0.0825062,-0.0583954
59.031350616,9.36377,0.105372,0.847386,0.0227521,0.0963996,-0.0443543,9.65417,-0.0164684,0.724327,0.214244,-0.0825062,-0.0583954
59.231368452,9.36377,0.105372,0.847386,0.0227521,0.0963996,-0.0443543,9.65417,-0.0164684,0.674327,0.214244,-0.0825062,-0.0583954
59.431385871,9.36377,0.105372,0.847386,0.0227521,0.0963996,-0.0443543,9.65417,-0.0164684,0.674327,0.214244,-0.0825062,-0.0583954
59.631384002,9.36377,0.105372,0.847386,0.0227521,0.0963996,-0.0443543,9.65417,-0.0164684,0.674327,0.214244,-0.0825062,-0.0583954
59.831388545,9.36377,0.105372,0.847386,0.0227521,0.0963996,-0.0443543,9.65417,-0.0164684,0.624327,0.214244,-0.0825062,-0.0583954
60.031394381,9.36377,0.105372,0.847386,0.0227521,0.0963996,-0.0443543,9.65417,-0.0164684,0.574327,0.214244,-0.0825062,-0.0583954
60.231350102,9.36377,0.105372,0.847386,0.0227521,0.0963996,-0.0443543,9.65417,-0.0164684,0.574327,0.214244,-0.0825062,-0.0583954
60.431359029,9.36258,0.108897,0.842743,0.0223324,0.0974042,-0.0436772,9.65417,-0.0164684,0.524327,0.218259,-0.0884726,-0.0564441
60.631388178,9.36345,0.0994672,0.765561,0.00320446,0.101296,-0.0312915,9.65417,-0.0164684,0.524327,-0.413611,-0.0968809,-0.718192
60.831360499,9.36345,0.0994672,0.765561,0.00320446,0.101296,-0.0312915,9.65417,-0.0164684,0.524327,-0.413611,-0.0968809,-0.718192
61.031393537,9.36345,0.0994672,0.765561,0.00320446,0.101296,-0.0312915,9.65417,-0.0164684,0.524327,-0.413611,-0.0968809,-0.718192
61.231359860,9.36345,0.0994672,0.765561,0.00320446,0.101296,-0.0312915,9.65417,-0.0164684,0.524327,-0.413611,-0.0968809,-0.718192
61.431390734,9.36345,0.0994672,0.765561,0.00320446,0.101296,-0.0312915,9.65417,-0.0164684,0.524327,-0.413611,-0.0968809,-0.718192
61.631395325,9.36345,0.0994672,0.765561,0.00320446,0.101296,-0.0312915,9.65417,-0.0164684,0.524327,-0.413611,-0.0968809,-0.718192
61.831383278,9.07934,0.0294584,0.18288,-0.00318173,0.153015,-0.00493535,9.65417,-0.0164684,0.524327,0.581192,-0.067836,0.420673
62.031348972,9.27478,0.0113746,0.277394,-0.004155,0.0379544,0.0127705,9.65417,-0.0164684,0.524327,0.613479,-0.0665981,0.26818
62.231345308,9.27478,0.0113746,0.277394,-0.004155,0.0379544,0.0127705,9.65417,-0.0164684,0.524327,0.613479,-0.0665981,0.26818
62.431383552,9.59044,-0.102646,0.297576,-0.0416049,-0.0451642,0.03525,9.65417,-0.0164684,0.524327,0.286346,-0.0605659,0.103957
62.631349402,9.6284,-0.170377,0.259528,-0.0569029,-0.0205531,0.0359622,9.65417,-0.0164684,0.474327,0.0751606,-0.016442,0.129131
62.831386349,9.60249,-0.231768,0.221859,-0.063867,0.0203348,0.0312139,9.65417,-0.0164684,0.474327,-0.0765863,0.0481925,0.109299
63.031382280,9.57562,-0.256187,0.207794,-0.0656533,0.0392934,0.027851,9.65417,-0.0164684,0.474327,-0.130023,0.089331,0.127758
63.231354641,9.57562,-0.256187,0.207794,-0.0656533,0.0392934,0.027851,9.65417,-0.0164684,0.424327,-0.130023,0.089331,0.127758
63.431346418,9.57562,-0.256187,0.207794,-0.0656533,0.0392934,0.027851,9.65417,-0.0164684,0.424327,-0.130023,0.089331,0.127758
63.631383725,9.50739,-0.254429,0.211406,-0.0422681,0.0791419,0.0108369,9.65417,-0.0164684,0.424327,0.0483615,0.297823,0.177625
63.831346427,9.50739,-0.254429,0.211406,-0.0422681,0.0791419,0.0108369,9.65417,-0.0164684,0.424327,0.0483615,0.297823,0.177625
64.031383733,9.58798,-0.206285,0.216875,-0.0231882,0.0387254,-0.0036866,9.65417,-0.0164684,0.424327,0.0483615,0.297823,0.177625
64.231380905,9.58798,-0.206285,0.216875,-0.0231882,0.0387254,-0.0036866,9.65417,-0.0164684,0.424327,0.0483615,0.297823,0.177625
64.431346993,9.58798,-0.206285,0.216875,-0.0231882,0.0387254,-0.0036866,9.65417,-0.0164684,0.424327,0.0483615,0.297823,0.177625
64.631420770,9.58798,-0.206285,0.216875,-0.0231882,0.0387254,-0.0036866,9.65417,-0.0164684,0.424327,0.0483615,0.297823,0.177625
64.831388051,9.60098,-0.199303,0.216573,-0.0208475,0.0347503,-0.00554244,9.65417,-0.0164684,0.424327,0.0584122,0.299816,0.168428
65.031345060,9.68354,-0.143553,0.354748,0.0230785,0.0488294,0.567396,9.65417,-0.0164684,0.424327,-0.0883755,0.124214,0.502798
65.231383216,9.6674,-0.15088,0.420606,-0.0288377,0.0575686,0.768648,9.65417,-0.0164684,0.424327,-0.0399749,0.114457,0.31576
65.431347774,9.6674,-0.15088,0.420606,-0.0288377,0.0575686,0.768648,9.65417,-0.0164684,0.424327,-0.0399749,0.114457,0.31576
65.631347805,9.6674,-0.15088,0.420606,-0.0288377,0.0575686,0.768648,9.65417,-0.0164684,0.424327,-0.0399749,0.114457,0.31576
65.831346848,9.6674,-0.15088,0.420606,-0.0288377,0.0575686,0.768648,9.65417,-0.0164684,0.424327,-0.00719252,0.143776,-0.304201
66.031390692,9.6674,-0.15088,0.420606,-0.0288377,0.0575686,0.768648,9.65417,-0.0164684,0.424327,-0.00719252,0.143776,-0.304201
66.231344833,9.6674,-0.15088,0.420606,-0.0288377,0.0575686,0.768648,9.65417,-0.0164684,0.424327,-0.00719252,0.143776,-0.304201
66.431389587,9.6079,-0.254842,0.262696,-0.055999,0.0510193,0.140584,9.65417,-0.0164684,0.424327,-0.00719252,0.143776,-0.304201
66.631343416,9.65818,-0.148119,0.398519,-0.0267785,0.0335042,-0.0768035,9.65417,-0.0164684,0.424327,-0.0695756,0.218483,0.0277289
66.831382196,9.68097,-0.0628557,0.446054,-0.00509559,0.0256136,-0.0687819,9.65417,-0.0164684,0.424327,-0.0836383,0.219153,-0.0110095
67.031384475,9.70032,0.0258373,0.49263,-0.00758705,0.0152027,-0.0687411,9.65417,-0.0164684,0.424327,-0.11113,0.231524,-0.0929372
67.231345301,9.70742,0.100597,0.503063,0.065638,0.0352093,-0.0693695,9.65417,-0.0164684,0.424327,-0.111403,0.124354,-0.42688
67.431348714,9.70448,0.139426,0.427922,0.0740061,0.0381191,-0.0733162,9.65417,-0.0164684,0.424327,-0.101059,-0.0503813,-0.833351
67.631343652,9.69248,0.145435,0.283742,0.0383022,0.0411189,-0.0809969,9.65417,-0.0164684,0.424327,-0.0990846,-0.144802,-1.01635
67.831348771,9.67576,0.135892,0.131511,0.0157443,0.0508415,-0.0816718,9.65417,-0.0164684,0.424327,-0.100276,-0.212981,-0.85496
68.031390137,9.66304,0.124532,0.0447629,-0.00809599,0.0660324,0.162127,9.65417,-0.0164684,0.424327,-0.100788,-0.192161,-0.630563
68.231345496,9.65514,0.13264,0.00453908,-0.019211,0.0686877,0.32402,9.65417,-0.0164684,0.424327,-0.0743343,-0.115233,-0.741939
68.431380301,9.63573,0.161976,-0.0698845,-0.0282875,0.0656484,0.379241,9.65417,-0.0164684,0.424327,-0.0226145,-0.0234569,-0.995122
68.631348913,9.60416,0.191237,-0.201898,0.000377948,0.0519897,0.385072,9.65417,-0.0164684,0.424327,-0.0158308,-0.0250233,-1.1721
68.831389221,9.55629,0.20675,-0.376595,0.018252,0.0621754,0.370374,9.65417,-0.0164684,0.424327,0.000140239,-0.0619251,-1.24265
69.031361881,9.52904,0.208297,-0.465134,0.0206121,0.07157,0.37304,9.65417,-0.0164684,0.424327,0.0149661,-0.0996475,-1.19081
69.231351493,9.52904,0.208297,-0.465134,0.0206121,0.07157,0.37304,9.65417,-0.0164684,0.424327,0.0149661,-0.0996475,-1.19081
69.431354329,9.4288,0.198145,-0.746441,0.0239978,0.109837,1.04133,9.65417,-0.0164684,0.424327,0.142691,-0.164636,-0.722334
69.631353732,9.42268,0.202324,-0.76302,0.0210979,0.108268,1.07351,9.65417,-0.0164684,0.424327,0.181907,-0.171867,-0.748223
69.831394404,9.42268,0.202324,-0.76302,0.0210979,0.108268,1.07351,9.65417,-0.0164684,0.424327,0.181907,-0.171867,-0.748223
70.031365674,9.42268,0.202324,-0.76302,0.0210979,0.108268,1.07351,9.65417,-0.0164684,0.424327,0.181907,-0.171867,-0.748223
70.231396763,9.42268,0.202324,-0.76302,0.0210979,0.108268,1.07351,9.65417,-0.0164684,0.424327,0.181907,-0.171867,-0.748223
70.431387685,9.42268,0.202324,-0.76302,0.0210979,0.108268,1.07351,9.65417,-0.0164684,0.424327,0.181907,-0.171867,-0.748223
70.631387382,9.42268,0.202324,-0.76302,0.0210979,0.108268,1.07351,9.65417,-0.0164684,0.424327,0.181907,-0.171867,-0.748223
70.831391710,9.42268,0.202324,-0.76302,0.0210979,0.108268,1.07351,9.65417,-0.0164684,0.424327,0.181907,-0.171867,-0.748223
71.031337178,9.42268,0.202324,-0.76302,0.0210979,0.108268,1.07351,9.65417,-0.0164684,0.424327,0.181907,-0.171867,-0.748223
71.231375364,9.42268,0.202324,-0.76302,0.0210979,0.108268,1.07351,9.65417,-0.0164684,0.424327,0.181907,-0.171867,-0.748223
71.431371490,9.42268,0.202324,-0.76302,0.0210979,0.108268,1.07351,9.65417,-0.0164684,0.424327,0.181907,-0.171867,-0.748223
71.631372285,9.42268,0.202324,-0.76302,0.0210979,0.108268,1.07351,9.65417,-0.0164684,0.424327,0.181907,-0.171867,-0.748223
71.831360208,9.42268,0.202324,-0.76302,0.0210979,0.108268,1.07351,9.65417,-0.0164684,0.424327,0.181907,-0.171867,-0.748223
72.031361451,9.42268,0.202324,-0.76302,0.0210979,0.108268,1.07351,9.65417,-0.0164684,0.424327,0.181907,-0.171867,-0.748223
72.231404690,9.42268,0.202324,-0.76302,0.0210979,0.108268,1.07351,9.65417,-0.0164684,0.424327,0.181907,-0.171867,-0.748223
72.431391967,9.42268,0.202324,-0.76302,0.0210979,0.108268,1.07351,9.65417,-0.0164684,0.424327,0.181907,-0.171867,-0.748223
72.631362668,9.42268,0.202324,-0.76302,0.0210979,0.108268,1.07351,9.65417,-0.0164684,0.424327,0.181907,-0.171867,-0.748223
72.831355520,9.42268,0.202324,-0.76302,0.0210979,0.108268,1.07351,9.65417,-0.0164684,0.424327,0.181907,-0.171867,-0.748223
73.031356471,9.42268,0.202324,-0.76302,0.0210979,0.108268,1.07351,9.65417,-0.0164684,0.424327,0.181907,-0.171867,-0.748223
73.231356911,9.42268,0.202324,-0.76302,0.0210979,0.108268,1.07351,9.65417,-0.0164684,0.424327,0.181907,-0.171867,-0.748223
73.431352883,9.42268,0.202324,-0.76302,0.0210979,0.108268,1.07351,9.65417,-0.0164684,0.424327,0.181907,-0.171867,-0.748223
73.631413575,9.42268,0.202324,-0.76302,0.0210979,0.108268,1.07351,9.65417,-0.0164684,0.424327,0.181907,-0.171867,-0.748223
73.831357989,9.42268,0.202324,-0.76302,0.0210979,0.108268,1.07351,9.65417,-0.0164684,0.424327,0.181907,-0.171867,-0.748223
74.031360793,9.42268,0.202324,-0.76302,0.0210979,0.108268,1.07351,9.65417,-0.0164684,0.424327,0.181907,-0.171867,-0.748223
74.231394633,9.42268,0.202324,-0.76302,0.0210979,0.108268,1.07351,9.65417,-0.0164684,0.424327,0.181907,-0.171867,-0.748223
74.431355059,9.42268,0.202324,-0.76302,0.0210979,0.108268,1.07351,9.65417,-0.0164684,0.424327,0.181907,-0.171867,-0.748223
74.631362129,9.42268,0.202324,-0.76302,0.0210979,0.108268,1.07351,9.65417,-0.0164684,0.424327,0.181907,-0.171867,-0.748223
74.831360224,9.42268,0.202324,-0.76302,0.0210979,0.108268,1.07351,9.65417,-0.0164684,0.424327,0.181907,-0.171867,-0.748223
75.031361020,9.42268,0.202324,-0.76302,0.0210979,0.108268,1.07351,9.65417,-0.0164684,0.424327,0.181907,-0.171867,-0.748223
75.231360162,9.42268,0.202324,-0.76302,0.0210979,0.108268,1.07351,9.65417,-0.0164684,0.424327,0.181907,-0.171867,-0.748223
75.431356652,9.42268,0.202324,-0.76302,0.0210979,0.108268,1.07351,9.65417,-0.0164684,0.424327,0.181907,-0.171867,-0.748223
75.631355487,9.42268,0.202324,-0.76302,0.0210979,0.108268,1.07351,9.65417,-0.0164684,0.424327,0.181907,-0.171867,-0.748223
75.831393487,9.42268,0.202324,-0.76302,0.0210979,0.108268,1.07351,9.65417,-0.0164684,0.424327,0.181907,-0.171867,-0.748223
76.031357687,9.42268,0.202324,-0.76302,0.0210979,0.108268,1.07351,9.65417,-0.0164684,0.424327,0.181907,-0.171867,-0.748223
76.231398318,9.42268,0.202324,-0.76302,0.0210979,0.108268,1.07351,9.65417,-0.0164684,0.424327,0.181907,-0.171867,-0.748223
76.431346223,9.42268,0.202324,-0.76302,0.0210979,0.108268,1.07351,9.65417,-0.0164684,0.424327,0.181907,-0.171867,-0.748223
76.631406297,9.42268,0.202324,-0.76302,0.0210979,0.108268,1.07351,9.65417,-0.0164684,0.424327,0.181907,-0.171867,-0.748223
76.831361422,9.42268,0.202324,-0.76302,0.0210979,0.108268,1.07351,9.65417,-0.0164684,0.424327,0.181907,-0.171867,-0.748223
77.031358126,9.42268,0.202324,-0.76302,0.0210979,0.108268,1.07351,9.65417,-0.0164684,0.424327,0.181907,-0.171867,-0.748223
77.231357529,9.42268,0.202324,-0.76302,0.0210979,0.108268,1.07351,9.65417,-0.0164684,0.424327,0.181907,-0.171867,-0.748223
77.431391180,9.42268,0.202324,-0.76302,0.0210979,0.108268,1.07351,9.65417,-0.0164684,0.424327,0.181907,-0.171867,-0.748223
77.631362483,9.42268,0.202324,-0.76302,0.0210979,0.108268,1.07351,9.65417,-0.0164684,0.424327,0.181907,-0.171867,-0.748223
77.831399339,9.42268,0.202324,-0.76302,0.0210979,0.108268,1.07351,9.65417,-0.0164684,0.424327,0.181907,-0.171867,-0.748223
78.031396956,9.42268,0.202324,-0.76302,0.0210979,0.108268,1.07351,9.65417,-0.0164684,0.424327,0.181907,-0.171867,-0.748223
78.231361086,9.42268,0.202324,-0.76302,0.0210979,0.108268,1.07351,9.65417,-0.0164684,0.424327,0.181907,-0.171867,-0.748223
78.431396714,9.42268,0.202324,-0.76302,0.0210979,0.108268,1.07351,9.65417,-0.0164684,0.424327,0.181907,-0.171867,-0.748223
78.631349981,9.42268,0.202324,-0.76302,0.0210979,0.108268,1.07351,9.65417,-0.0164684,0.424327,0.181907,-0.171867,-0.748223
78.831361036,9.42268,0.202324,-0.76302,0.0210979,0.108268,1.07351,9.65417,-0.0164684,0.424327,0.181907,-0.171867,-0.748223
79.031355561,9.42268,0.202324,-0.76302,0.0210979,0.108268,1.07351,9.65417,-0.0164684,0.424327,0.181907,-0.171867,-0.748223
79.231360090,9.42268,0.202324,-0.76302,0.0210979,0.108268,1.07351,9.65417,-0.0164684,0.424327,0.181907,-0.171867,-0.748223
79.431395413,9.42268,0.202324,-0.76302,0.0210979,0.108268,1.07351,9.65417,-0.0164684,0.424327,0.181907,-0.171867,-0.748223
79.631354561,9.42268,0.202324,-0.76302,0.0210979,0.108268,1.07351,9.65417,-0.0164684,0.424327,0.181907,-0.171867,-0.748223
79.831392837,9.42268,0.202324,-0.76302,0.0210979,0.108268,1.07351,9.65417,-0.0164684,0.424327,0.181907,-0.171867,-0.748223
80.031390451,9.42268,0.202324,-0.76302,0.0210979,0.108268,1.07351,9.65417,-0.0164684,0.424327,0.181907,-0.171867,-0.748223
80.231364899,9.42268,0.202324,-0.76302,0.0210979,0.108268,1.07351,9.65417,-0.0164684,0.424327,0.181907,-0.171867,-0.748223
80.431393428,9.42268,0.202324,-0.76302,0.0210979,0.108268,1.07351,9.65417,-0.0164684,0.424327,0.181907,-0.171867,-0.748223
80.631397949,9.42268,0.202324,-0.76302,0.0210979,0.108268,1.07351,9.65417,-0.0164684,0.424327,0.181907,-0.171867,-0.748223
80.831394165,9.42268,0.202324,-0.76302,0.0210979,0.108268,1.07351,9.65417,-0.0164684,0.424327,0.181907,-0.171867,-0.748223
81.031358729,9.42268,0.202324,-0.76302,0.0210979,0.108268,1.07351,9.65417,-0.0164684,0.424327,0.181907,-0.171867,-0.748223
81.231393641,9.42268,0.202324,-0.76302,0.0210979,0.108268,1.07351,9.65417,-0.0164684,0.424327,0.181907,-0.171867,-0.748223
81.431357061,9.42268,0.202324,-0.76302,0.0210979,0.108268,1.07351,9.65417,-0.0164684,0.424327,0.181907,-0.171867,-0.748223
81.631394779,9.42268,0.202324,-0.76302,0.0210979,0.108268,1.07351,9.65417,-0.0164684,0.424327,0.181907,-0.171867,-0.748223
81.831397946,9.42268,0.202324,-0.76302,0.0210979,0.108268,1.07351,9.65417,-0.0164684,0.424327,0.181907,-0.171867,-0.748223
82.031401275,9.42268,0.202324,-0.76302,0.0210979,0.108268,1.07351,9.65417,-0.0164684,0.424327,0.181907,-0.171867,-0.748223
82.231401143,9.42268,0.202324,-0.76302,0.0210979,0.108268,1.07351,9.65417,-0.0164684,0.424327,0.181907,-0.171867,-0.748223
82.431357000,9.42268,0.202324,-0.76302,0.0210979,0.108268,1.07351,9.65417,-0.0164684,0.424327,0.181907,-0.171867,-0.748223
82.631363425,9.42268,0.202324,-0.76302,0.0210979,0.108268,1.07351,9.65417,-0.0164684,0.424327,0.181907,-0.171867,-0.748223
82.831411815,9.42268,0.202324,-0.76302,0.0210979,0.108268,1.07351,9.65417,-0.0164684,0.424327,0.181907,-0.171867,-0.748223
83.031360590,9.42268,0.202324,-0.76302,0.0210979,0.108268,1.07351,9.65417,-0.0164684,0.424327,0.181907,-0.171867,-0.748223
83.231359258,9.42268,0.202324,-0.76302,0.0210979,0.108268,1.07351,9.65417,-0.0164684,0.424327,0.181907,-0.171867,-0.748223
83.431391297,9.42268,0.202324,-0.76302,0.0210979,0.108268,1.07351,9.65417,-0.0164684,0.424327,0.181907,-0.171867,-0.748223
83.631391886,9.42268,0.202324,-0.76302,0.0210979,0.108268,1.07351,9.65417,-0.0164684,0.424327,0.181907,-0.171867,-0.748223
83.831355071,9.42268,0.202324,-0.76302,0.0210979,0.108268,1.07351,9.65417,-0.0164684,0.424327,0.181907,-0.171867,-0.748223
84.031364006,9.42268,0.202324,-0.76302,0.0210979,0.108268,1.07351,9.65417,-0.0164684,0.424327,0.181907,-0.171867,-0.748223
84.231363549,9.42268,0.202324,-0.76302,0.0210979,0.108268,1.07351,9.65417,-0.0164684,0.424327,0.181907,-0.171867,-0.748223
